City_ID,City,Lat,Lng,Max Temp,Humidity,Cloudiness,Wind Speed,Country,Date
0,port-aux-francais,-49.35,70.2167,6.37,91,100,17.12,TF,1715303885
1,fort bragg,35.139,-79.006,23.08,82,0,4.12,US,1715303885
2,adamstown,-25.066,-130.1015,22.29,76,99,4.79,PN,1715303794
3,mont-tremblant,46.1949,-74.6264,7.98,87,73,0.51,CA,1715303837
4,invercargill,-46.4,168.35,9.45,77,100,5.36,NZ,1715303887
5,jinsha,32.0898,121.0735,20.65,57,0,6.79,CN,1715303887
6,lebu,-37.6167,-73.65,8.81,86,0,2.0,CL,1715303888
7,longyearbyen,78.2186,15.6401,-0.09,69,75,8.75,SJ,1715303888
8,riachao das neves,-11.7461,-44.91,21.33,40,37,0.17,BR,1715303889
9,cidreira,-30.1811,-50.2056,15.59,65,99,2.14,BR,1715303889
10,tiksi,71.6872,128.8694,-2.73,90,100,1.72,RU,1715303890
11,hamilton,39.1834,-84.5333,17.09,93,40,4.12,US,1715303890
12,waitangi,-43.9535,-176.5597,11.01,77,100,2.24,NZ,1715303891
13,holualoa,19.6228,-155.9522,26.91,81,40,7.2,US,1715303891
14,codrington,-38.2667,141.9667,14.42,89,100,4.06,AU,1715303892
15,sultanah,24.4926,39.5857,27.25,21,0,1.03,SA,1715303892
16,lata,40.1629,-8.3327,15.6,67,1,0.73,PT,1715303893
17,ribeira grande,38.5167,-28.7,17.65,91,26,3.58,PT,1715303893
18,tolanaro,-25.0319,46.9987,21.41,88,21,5.29,MG,1715303894
19,wailua homesteads,22.0669,-159.378,26.24,74,20,3.6,US,1715303894
20,iqaluit,63.7506,-68.5145,-2.15,79,75,3.6,CA,1715303896
21,barah,13.7,30.3667,24.63,8,6,4.03,SD,1715303896
22,ushuaia,-54.8,-68.3,1.81,69,0,7.72,AR,1715303897
23,bethel,41.3712,-73.414,16.31,71,98,1.81,US,1715303898
24,bodo,67.28,14.405,4.32,85,75,9.26,NO,1715303898
25,grytviken,-54.2811,-36.5092,-0.39,91,100,1.73,GS,1715303898
26,inhambane,-23.865,35.3833,20.85,86,1,0.8,MZ,1715303899
27,oranjemund,-28.55,16.4333,13.21,92,0,3.78,NA,1715303899
28,hasaki,35.7333,140.8333,20.22,35,0,4.25,JP,1715303900
29,afaahiti,-17.75,-149.2833,28.93,74,1,4.29,PF,1715303900
30,whitehorse,60.7161,-135.0538,11.68,49,75,12.86,CA,1715303901
31,bereznehuvate,47.3078,32.8499,6.77,59,8,3.44,UA,1715303901
32,sitka,57.0531,-135.33,10.94,82,100,10.8,US,1715303902
33,ronneby,56.21,15.276,11.28,100,100,3.09,SE,1715303902
34,puerto baquerizo moreno,-0.9,-89.6,22.99,86,52,5.04,EC,1715303903
35,udachny,66.4167,112.4,-9.2,94,100,5.22,RU,1715303903
36,punta arenas,-53.15,-70.9167,-0.94,93,20,3.09,CL,1715303904
37,albany,42.6001,-73.9662,14.82,59,100,2.19,US,1715303740
38,georgetown,5.4112,100.3354,29.96,83,20,1.54,MY,1715303729
39,edinburgh of the seven seas,-37.0676,-12.3116,12.43,60,100,3.59,SH,1715303905
40,blackmans bay,-43.0167,147.3167,13.18,93,100,1.2,AU,1715303907
41,nova sintra,14.8667,-24.7167,23.72,78,11,10.84,CV,1715303907
42,tura,25.5198,90.2201,22.99,77,100,1.25,IN,1715303908
43,palmer,42.1584,-72.3287,16.78,56,75,4.12,US,1715303908
44,morehead city,34.7229,-76.726,23.37,87,100,4.02,US,1715303909
45,upata,8.0086,-62.3989,27.88,67,57,1.99,VE,1715303910
46,ulsteinvik,62.3432,5.8487,4.06,86,68,1.34,NO,1715303910
47,tocopilla,-22.092,-70.1979,18.13,75,23,3.41,CL,1715303911
48,azemmour,33.2895,-8.3425,19.6,67,100,1.93,MA,1715303911
49,nogliki,51.8333,143.1667,4.08,96,100,3.58,RU,1715303912
50,howard springs,-12.497,131.047,32.12,76,1,4.99,AU,1715303912
51,vilyuchinsk,52.9306,158.4028,10.15,61,11,3.14,RU,1715303913
52,coahuayana de hidalgo,18.7,-103.6583,24.65,72,3,1.83,MX,1715303913
53,olonkinbyen,70.9221,-8.7187,-1.63,79,12,7.68,SJ,1715303914
54,ust-nera,64.5667,143.2,4.3,77,100,1.65,RU,1715303915
55,new norfolk,-42.7826,147.0587,13.84,83,98,1.08,AU,1715303915
56,forster,-32.1667,152.5167,19.1,83,68,2.83,AU,1715303916
57,puerto ayora,-0.7393,-90.3518,23.08,99,42,4.07,EC,1715303916
58,usogorsk,63.4106,48.6872,-2.41,96,92,1.19,RU,1715303917
59,kyparissia,37.2511,21.6736,18.63,78,100,2.29,GR,1715303917
60,avarua,-21.2078,-159.775,28.03,83,20,4.63,CK,1715303918
61,college,64.8569,-147.8028,12.99,47,75,5.14,US,1715303919
62,bredasdorp,-34.5322,20.0403,10.6,90,0,2.75,ZA,1715303919
63,tyukhtet,56.5389,89.3011,10.71,53,100,4.75,RU,1715303920
64,yellowknife,62.456,-114.3525,15.31,26,38,5.36,CA,1715303920
65,dudinka,69.4058,86.1778,-10.18,93,42,2.68,RU,1715303921
66,camabatela,-8.1881,15.375,18.99,80,100,0.16,AO,1715303922
67,puerto natales,-51.7236,-72.4875,-0.82,95,78,1.31,CL,1715303922
68,pangody,65.85,74.4859,1.05,98,100,11.58,RU,1715303923
69,paracuru,-3.41,-39.0306,28.39,87,100,3.25,BR,1715303923
70,selkirk,50.1436,-96.8845,21.04,30,7,1.65,CA,1715303924
71,hakodate,41.7758,140.7367,15.17,72,20,5.14,JP,1715303924
72,peterhead,57.5058,-1.7981,11.36,97,100,2.99,GB,1715303925
73,margaret river,-33.95,115.0667,19.52,84,93,8.13,AU,1715303925
74,geraldton,-28.7667,114.6,24.23,46,100,5.66,AU,1715303735
75,enewetak,11.3474,162.3373,27.57,76,100,8.59,MH,1715303926
76,klyuchi,52.2667,79.1667,18.41,45,100,4.98,RU,1715303927
77,nikolayevsk-on-amure,53.1406,140.73,7.34,59,82,4.02,RU,1715303927
78,thunder bay,48.4001,-89.3168,9.99,50,20,2.06,CA,1715303928
79,axim,4.8699,-2.2405,27.74,84,100,2.88,GH,1715303928
80,casarza ligure,44.2719,9.447,17.72,74,5,4.07,IT,1715303929
81,puerto aysen,-45.4,-72.7,3.7,100,100,0.4,CL,1715303930
82,fale old settlement,-9.3852,-171.2468,29.17,71,100,1.97,TK,1715303930
83,talnakh,69.4865,88.3972,-10.44,81,6,1.7,RU,1715303931
84,nejo,9.5,35.5,17.1,37,72,0.99,ET,1715303931
85,astrakhan,46.3497,48.0408,9.93,81,0,1.0,RU,1715303932
86,masterton,-40.9597,175.6575,11.72,52,48,4.2,NZ,1715303932
87,papatowai,-46.5619,169.4708,7.96,83,100,5.95,NZ,1715303933
88,jwaneng,-24.6004,24.7303,14.35,36,0,3.55,BW,1715303933
89,selfoss,63.9331,-20.9971,6.14,62,100,2.76,IS,1715303934
90,vadso,70.0744,29.7487,-0.91,74,100,5.14,NO,1715303935
91,kone,-21.0595,164.8658,27.0,43,12,4.55,NC,1715303935
92,isafjordur,66.0755,-23.124,2.46,78,100,0.5,IS,1715303936
93,chopan,24.5167,83.0333,27.36,52,0,3.12,IN,1715303936
94,mitu,1.1983,-70.1733,23.7,98,100,1.03,CO,1715303880
95,stanley,54.868,-1.6985,11.01,90,0,2.06,GB,1715303937
96,tazovsky,67.4667,78.7,-2.55,89,97,7.54,RU,1715303938
97,hermanus,-34.4187,19.2345,12.93,79,0,4.05,ZA,1715303938
98,port mathurin,-19.6833,63.4167,25.38,72,100,11.43,MU,1715303939
99,chinde,26.8418,88.0763,19.63,60,61,1.23,NP,1715303939
100,hurricane,37.1753,-113.2899,24.19,37,29,8.56,US,1715303940
101,aykhal,66.0,111.5,-7.78,86,100,6.6,RU,1715303942
102,shakawe,-18.3667,21.85,14.16,32,0,2.47,BW,1715303942
103,faya-largeau,17.9257,19.1043,33.91,14,28,4.94,TD,1715303943
104,mount isa,-20.7333,139.5,24.87,65,40,3.6,AU,1715303943
105,harstad,68.799,16.5293,2.86,97,100,8.49,NO,1715303944
106,imbituba,-28.24,-48.6703,17.06,90,100,1.92,BR,1715303944
107,aasiaat,68.7098,-52.8699,-11.14,91,80,1.69,GL,1715303945
108,vorgashor,67.5833,63.95,-2.33,74,100,8.75,RU,1715303945
109,coquimbo,-29.9533,-71.3436,13.85,82,100,2.06,CL,1715303805
110,duong dong,10.2167,103.9667,29.0,84,40,4.12,VN,1715303946
111,kavaratti,10.5669,72.642,29.91,69,100,4.53,IN,1715303947
112,weno,7.4515,151.8468,30.97,79,100,4.12,FM,1715303947
113,east london,-33.0153,27.9116,19.73,87,5,1.94,ZA,1715303948
114,el galpon,-25.3807,-64.6526,11.04,75,99,1.72,AR,1715303948
115,luderitz,-26.6481,15.1594,13.39,85,0,7.34,NA,1715303949
116,punta gorda,26.9298,-82.0454,27.22,88,1,3.58,US,1715303949
117,la'ie,21.6477,-157.9253,25.62,73,50,1.34,US,1715303950
118,mil'kovo,55.6078,37.7956,2.21,66,16,4.32,RU,1715303950
119,el jadid,33.2549,-8.506,19.42,73,100,2.22,MA,1715303951
120,hammerfest,70.6634,23.6821,1.25,86,100,3.09,NO,1715303951
121,qaqortoq,60.7167,-46.0333,1.52,74,100,1.06,GL,1715303952
122,pingshan,22.9938,114.7131,24.51,65,16,2.11,CN,1715303952
123,champerico,14.3,-91.9167,29.71,67,80,3.5,GT,1715303953
124,sirjan,29.452,55.6814,15.09,28,0,1.58,IR,1715303953
125,mbanza kongo,-6.267,14.2401,21.36,100,99,0.92,AO,1715303954
126,kidal,18.4411,1.4078,32.21,7,2,4.85,ML,1715303954
127,hirado,33.3597,129.5531,17.37,67,0,4.11,JP,1715303955
128,runing,33.0011,114.3542,24.44,46,4,7.4,CN,1715303955
129,iskateley,67.6803,53.1512,-1.66,95,100,11.62,RU,1715303956
130,burang,30.25,81.1667,3.01,46,5,0.3,CN,1715303956
131,bilibino,68.0546,166.4372,-0.4,87,100,1.08,RU,1715303957
132,livingstone,-17.8419,25.8543,14.87,42,0,1.28,ZM,1715303957
133,callao,-12.0667,-77.15,21.51,88,75,3.6,PE,1715303958
134,kapa'a,22.0752,-159.319,26.99,74,20,3.6,US,1715303959
135,labytnangi,66.6572,66.4183,-3.12,95,100,11.98,RU,1715303959
136,west island,-12.1568,96.8225,26.99,78,40,8.75,CC,1715303960
137,hotan,37.0997,79.9269,23.34,14,60,2.81,CN,1715303960
138,ventspils,57.3894,21.5606,8.96,93,100,2.57,LV,1715303961
139,crotone,39.0851,17.1178,16.77,91,100,3.34,IT,1715303961
140,greenville,35.6127,-77.3663,23.41,86,0,2.06,US,1715303962
141,pudozh,61.8099,36.5345,-1.7,75,31,3.58,RU,1715303962
142,kaa-khem,51.6833,94.7333,10.23,37,100,1.82,RU,1715303963
143,princeville,45.7668,-61.2985,4.95,95,100,4.63,CA,1715303963
144,abra pampa,-22.7205,-65.697,13.81,18,100,1.96,AR,1715303964
145,kerikeri,-35.2268,173.9474,15.67,41,2,4.67,NZ,1715303964
146,halden,59.1226,11.3871,10.29,76,0,3.62,NO,1715303965
147,kijang,35.2442,129.2139,20.85,54,6,3.57,KR,1715303965
148,bamboo flat,11.7,92.7167,29.61,71,45,1.54,IN,1715303966
149,lerwick,60.1545,-1.1494,9.0,87,100,5.47,GB,1715303966
150,siwa oasis,29.2041,25.5195,25.01,33,99,7.3,EG,1715303967
151,daye,30.0833,114.95,22.84,61,100,2.8,CN,1715303968
152,macau,22.2006,113.5461,26.51,78,40,7.2,MO,1715303968
153,daru,-9.0763,143.2092,26.94,89,94,6.19,PG,1715303969
154,hawaiian paradise park,19.5933,-154.9731,25.73,80,75,5.14,US,1715303969
155,biryusinsk,55.9634,97.8235,7.22,60,88,1.57,RU,1715303970
156,st. john's,47.5649,-52.7093,4.82,88,75,2.06,CA,1715303915
157,viedma,-40.8135,-62.9967,9.29,40,23,4.28,AR,1715303971
158,abbeville,50.1,1.8333,10.98,92,19,2.2,FR,1715303971
159,nantucket,41.2835,-70.0995,11.08,93,0,2.57,US,1715303673
160,plymouth,41.8334,-70.8328,11.9,81,0,3.09,US,1715303972
161,loen,7.7601,168.2307,27.96,85,100,7.71,MH,1715303973
162,belomorsk,64.5232,34.7668,-4.43,87,12,4.1,RU,1715303973
163,puerto rosario,-24.45,-57.0833,17.51,96,37,1.33,PY,1715303974
164,villa del totoral,-30.8167,-63.7167,8.86,47,100,2.27,AR,1715303974
165,egilsstadir,65.2653,-14.3948,1.95,87,0,1.03,IS,1715303975
166,yoakum,29.2878,-97.1519,29.45,75,52,4.17,US,1715303975
167,cururupu,-1.8283,-44.8683,24.65,92,99,0.42,BR,1715303976
168,port elizabeth,-33.918,25.5701,15.17,96,75,4.63,ZA,1715303976
169,cidade velha,14.9167,-23.6167,24.26,60,0,5.66,CV,1715303977
170,isangel,-19.55,169.2667,26.06,61,75,4.63,VU,1715303977
171,nueva gerona,21.8833,-82.8,28.2,72,82,3.59,CU,1715303978
172,north shore,-36.8,174.75,15.26,64,0,6.26,NZ,1715303978
173,utrik,11.2278,169.8474,27.25,80,87,8.46,MH,1715303979
174,chipinge,-20.1883,32.6236,12.07,85,0,1.25,ZW,1715303979
175,kununurra,-15.7667,128.7333,29.99,45,1,7.72,AU,1715303764
176,amursk,50.2261,136.8994,9.99,35,9,2.46,RU,1715303980
177,ciudad lazaro cardenas,17.9583,-102.2,25.17,74,100,3.06,MX,1715303871
178,pitimbu,-7.4706,-34.8086,24.33,80,11,5.2,BR,1715303981
179,chemolgan,43.1897,76.5292,17.81,56,0,1.93,KZ,1715303982
180,jayrud,33.8074,36.7404,14.7,22,10,1.75,SY,1715303982
181,las vegas,36.175,-115.1372,26.38,17,100,3.6,US,1715303718
182,darwin,-12.4611,130.8418,31.61,55,0,5.66,AU,1715303763
183,thompson,55.7435,-97.8558,10.09,87,75,1.03,CA,1715303984
184,pailin,12.849,102.6093,28.44,77,41,0.17,KH,1715303985
185,flying fish cove,-10.4217,105.6791,27.82,78,100,6.69,CX,1715303985
186,rongelap,11.1635,166.8941,27.23,82,40,7.99,MH,1715303986
187,island harbour,50.724,-1.2758,11.79,74,100,2.37,GB,1715303986
188,portland,45.5234,-122.6762,27.33,35,20,5.81,US,1715303976
189,cabo san lucas,22.8909,-109.9124,28.67,44,0,2.57,MX,1715303827
190,gadzhiyevo,69.2551,33.3362,-1.44,85,100,4.9,RU,1715303988
191,spring creek,40.7266,-115.5859,13.83,43,58,0.45,US,1715303988
192,allapalli,19.4167,80.0667,26.67,72,79,1.37,IN,1715303989
193,mana,5.6592,-53.7767,25.79,89,100,5.3,GF,1715303989
194,nandu,22.8525,110.8233,25.02,83,100,1.65,CN,1715303990
195,ilha de mocambique,-15.0342,40.7358,25.91,76,3,4.66,MZ,1715303990
196,brigantine,39.4101,-74.3646,15.67,83,100,4.92,US,1715303991
197,sikasso,10.9167,-7.0,29.37,52,63,1.93,ML,1715303991
198,erenhot,43.6475,111.9767,12.84,59,100,11.4,CN,1715303992
199,la passe,45.5549,-0.8967,14.12,91,0,4.76,FR,1715303992
200,rio preto da eva,-2.6994,-59.6997,26.34,84,100,1.03,BR,1715303993
201,saldanha,-33.0117,17.9442,8.03,90,37,5.08,ZA,1715303993
202,namsos,64.4662,11.4957,4.03,81,100,1.54,NO,1715303994
203,balykshi,47.0667,51.8667,6.0,75,0,5.0,KZ,1715303994
204,susuman,62.7833,148.1667,2.77,68,100,1.79,RU,1715303995
205,tindouf,27.6711,-8.1474,29.25,11,40,3.09,DZ,1715303995
206,taltal,-25.4,-70.4833,16.08,79,100,0.23,CL,1715303996
207,konin,52.2234,18.2512,8.96,70,100,1.68,PL,1715303996
208,chonchi,-42.6128,-73.8092,6.18,95,16,1.2,CL,1715303997
209,makarov,48.6333,142.8,10.18,54,2,1.64,RU,1715303997
210,san luis de la loma,17.2706,-100.8939,25.91,71,100,3.33,MX,1715303998
211,warora,20.2333,79.0,28.9,64,8,2.8,IN,1715303999
212,korem,12.5058,39.5228,14.66,81,7,1.42,ET,1715303999
213,seydi,39.4816,62.9137,18.56,52,100,10.68,TM,1715304000
214,badger,64.8,-147.5333,12.95,42,75,5.14,US,1715304000
215,arraial do cabo,-22.9661,-42.0278,24.11,90,9,5.35,BR,1715304001
216,sisimiut,66.9395,-53.6735,-4.7,81,11,3.61,GL,1715304001
217,port lincoln,-34.7333,135.8667,15.9,70,0,4.09,AU,1715304002
218,coyhaique,-45.5752,-72.0662,2.97,87,20,4.12,CL,1715304002
219,mount gambier,-37.8333,140.7667,15.53,67,85,2.12,AU,1715304003
220,callaway,30.153,-85.5699,27.03,93,75,4.12,US,1715304004
221,roccella ionica,38.322,16.4009,15.99,84,100,4.47,IT,1715304004
222,krusevac,43.58,21.3339,11.2,89,100,0.77,RS,1715304005
223,haiku-pauwela,20.9219,-156.3051,25.68,84,75,8.23,US,1715304005
224,shalkar,47.8288,59.6258,8.06,53,8,2.81,KZ,1715304006
225,soio,-6.1349,12.3689,25.49,91,41,1.98,AO,1715304006
226,ancud,-41.8697,-73.8203,8.7,81,59,3.68,CL,1715304007
227,bel ombre,-4.6167,55.4167,26.91,89,40,1.54,SC,1715304007
228,jamestown,42.097,-79.2353,12.77,88,100,3.09,US,1715304008
229,port hedland,-20.3167,118.5667,29.03,21,42,8.23,AU,1715304008
230,swakopmund,-22.6833,14.5333,15.47,85,30,3.32,NA,1715304009
231,ketchikan,55.3422,-131.6461,12.41,87,75,3.6,US,1715304009
232,manggar,-2.8833,108.2667,30.17,66,43,4.81,ID,1715304010
233,al ghayzah,16.2079,52.176,29.36,77,37,3.57,YE,1715304010
234,uturoa,-16.7333,-151.4333,27.95,70,14,4.26,PF,1715304011
235,leava,-14.3,-178.1667,27.72,67,100,6.83,WF,1715304011
236,cockburn town,21.4612,-71.1419,25.68,77,0,6.19,TC,1715304012
237,nosy varika,-20.5833,48.5333,22.58,83,38,2.03,MG,1715304012
238,cadale,2.7603,46.3222,27.46,80,97,6.6,SO,1715304013
239,cide,41.8921,33.0044,13.51,91,99,5.76,TR,1715304013
240,colchani,-20.3,-66.9333,9.04,39,0,3.51,BO,1715304014
241,alofi,-19.0595,-169.9187,26.94,74,75,3.09,NU,1715304015
242,baruun-urt,46.6806,113.2792,4.08,93,100,6.94,MN,1715304015
243,onega,63.9061,38.1404,-2.74,89,100,8.03,RU,1715304016
244,mount pearl,47.5166,-52.7813,4.36,88,75,2.06,CA,1715304016
245,batouri,4.4333,14.3667,22.24,94,100,1.02,CM,1715304017
246,dinghaicun,26.2847,119.7936,20.51,79,100,4.45,CN,1715304017
247,quelimane,-17.8786,36.8883,19.45,88,0,1.04,MZ,1715304018
248,gamba,-2.65,10.0,25.09,91,100,2.1,GA,1715304018
249,taranto,40.6167,17.25,17.87,82,97,1.79,IT,1715304019
250,cole harbour,44.6724,-63.4751,6.07,91,100,6.69,CA,1715304019
251,vilyuysk,63.7553,121.6247,-3.89,83,100,3.13,RU,1715304020
252,kapuskasing,49.4169,-82.4331,12.05,43,20,2.57,CA,1715304025
253,kodiak,57.79,-152.4072,3.73,87,75,3.09,US,1715304026
254,sao joao da barra,-21.6403,-41.0511,25.08,88,69,4.82,BR,1715304027
255,carutapera,-1.195,-46.02,25.84,88,99,3.1,BR,1715304027
256,nizhnesortymskiy,62.4397,71.7603,1.5,95,100,9.31,RU,1715304028
257,san patricio,28.017,-97.5169,29.53,79,0,5.36,US,1715304028
258,pyt-yakh,60.7499,72.8582,5.92,91,100,5.37,RU,1715304029
259,norfolk,42.1668,-71.2495,12.41,79,100,3.09,US,1715304029
260,nicoya,10.1483,-85.452,28.11,80,100,0.89,CR,1715304030
261,atafu village,-8.5421,-172.5159,29.29,71,91,1.52,TK,1715304030
262,sao tome,0.3365,6.7273,27.25,86,100,4.29,ST,1715304031
263,santa elena de uairen,4.6167,-61.1333,21.52,90,100,1.52,VE,1715304031
264,puerto cabello,10.4731,-68.0125,29.75,79,100,4.92,VE,1715304032
265,uige,-7.6087,15.0613,21.24,92,98,0.56,AO,1715304033
266,chernyshevskiy,63.0128,112.4714,-2.54,65,15,2.93,RU,1715304034
267,yanam,16.7333,82.2167,27.92,84,10,0.27,IN,1715304034
268,keflavik,64.0049,-22.5624,7.24,76,0,5.14,IS,1715304035
269,cannonvale,-20.2833,148.7,23.66,71,100,7.32,AU,1715304035
270,patti,31.2808,74.8572,30.04,43,3,3.93,IN,1715304036
271,vila velha,-20.3297,-40.2925,25.97,93,20,2.06,BR,1715304036
272,itoman,26.1247,127.6694,25.43,56,75,5.14,JP,1715304037
273,jiutai,44.1525,125.8328,15.19,59,100,6.82,CN,1715304037
274,vorkuta,67.5,64.0,-2.16,74,100,9.39,RU,1715304038
275,taro,-8.3862,115.28,24.0,76,48,0.72,ID,1715304038
276,bodmin,50.4715,-4.7243,14.4,82,100,3.6,GB,1715304039
277,dzilam gonzalez,21.2833,-88.9333,33.35,39,13,4.29,MX,1715304039
278,zhangjiakou,40.81,114.8794,20.3,52,99,1.52,CN,1715304040
279,marsala,37.7966,12.4352,16.63,83,30,4.56,IT,1715304041
280,port-gentil,-0.7193,8.7815,27.06,86,100,5.98,GA,1715304041
281,governador dix sept rosado,-5.4589,-37.5208,25.9,81,61,3.93,BR,1715304042
282,seria,4.6167,114.3167,32.12,75,90,1.58,BN,1715304042
283,sittwe,20.15,92.9,27.5,67,34,2.86,MM,1715304043
284,kingston,17.997,-76.7936,29.53,74,40,6.17,JM,1715304043
285,cuitlahuac,18.8167,-96.7167,32.69,31,24,1.71,MX,1715304044
286,kudahuvadhoo,2.6708,72.8944,29.39,75,96,5.18,MV,1715304045
287,kaohsiung,22.6163,120.3133,28.05,71,75,1.54,TW,1715304046
288,maragogi,-9.0122,-35.2225,25.38,84,30,3.81,BR,1715304046
289,nchelenge,-9.3451,28.734,22.46,67,100,1.95,ZM,1715304047
290,tommot,58.9564,126.2925,3.78,56,98,1.79,RU,1715304047
291,solnechnyy,50.7214,136.6319,8.35,34,16,2.44,RU,1715304048
292,saipan,15.1355,145.701,33.39,62,40,7.2,MP,1715304049
293,nacogdoches,31.6002,-94.6335,26.92,97,40,1.54,US,1715304050
294,tierp,60.3427,17.5181,6.9,80,11,4.17,SE,1715304050
295,sur,22.5667,59.5289,31.69,52,0,1.94,OM,1715304051
296,torghay,49.6339,63.4981,7.26,59,88,3.87,KZ,1715304051
297,maydanshakhr,34.3956,68.8662,12.34,74,85,1.93,AF,1715304052
298,berezovyy,51.6667,135.7,12.77,32,5,1.46,RU,1715304052
299,saudarkrokur,65.7461,-19.6394,4.76,59,94,1.36,IS,1715304053
300,totness,5.8833,-56.3167,26.8,84,100,6.09,SR,1715304053
301,ndende,-2.4008,11.3581,23.77,96,100,0.94,GA,1715304054
302,hit,33.6416,42.8251,23.65,29,77,3.52,IQ,1715304054
303,manokwari,-0.8667,134.0833,28.55,77,97,3.62,ID,1715304055
304,hithadhoo,-0.6,73.0833,29.06,76,11,4.27,MV,1715304055
305,saynshand,44.8824,110.1163,6.98,44,99,14.76,MN,1715304056
306,marshfield,44.6689,-90.1718,13.49,76,100,0.0,US,1715304057
307,belle fourche,44.6714,-103.8522,15.73,76,100,2.08,US,1715304057
308,bardai,11.65,7.2333,28.83,48,100,3.96,NG,1715304058
309,usinsk,65.9939,57.5281,-1.07,97,100,1.34,RU,1715304058
310,glace bay,46.1969,-59.957,3.77,97,100,5.14,CA,1715304059
311,lensk,60.7253,114.9278,3.74,58,100,1.89,RU,1715304060
312,varena,54.2167,24.5667,6.29,97,98,2.48,LT,1715304060
313,belaya kholunitsa,58.84,50.8528,-2.16,94,100,4.51,RU,1715304061
314,malango,-2.9627,119.9001,25.42,68,8,1.48,ID,1715304061
315,acarau,-2.8856,-40.12,26.58,87,100,3.74,BR,1715303831
316,al qusayr,34.5091,36.5798,19.65,25,1,1.85,SY,1715304062
317,igarka,67.4667,86.5833,-0.55,99,83,5.81,RU,1715304063
318,loushanguan,28.1375,106.82,17.63,96,100,1.77,CN,1715304063
319,jayapura,-2.5333,140.7,24.66,88,100,1.42,ID,1715304064
320,rambha,19.5167,85.1,28.81,77,1,5.09,IN,1715304064
321,bitkine,11.9801,18.2138,31.14,15,100,1.03,TD,1715304065
322,evanston,42.0411,-87.6901,12.29,88,100,5.66,US,1715304065
323,apolinario saravia,-24.4328,-63.9954,12.72,71,50,1.77,AR,1715304066
324,kupang,-10.1667,123.5833,32.32,70,20,6.69,ID,1715304067
325,kiruna,67.8557,20.2251,-1.49,74,75,4.63,SE,1715304068
326,gunjur,13.2019,-16.7339,24.04,88,0,2.57,GM,1715304068
327,lobujya,27.95,86.8167,-6.58,70,87,4.59,NP,1715304070
328,constantia,44.1833,28.65,9.38,80,38,5.8,RO,1715304071
329,anadyr,64.75,177.4833,-3.72,68,75,2.0,RU,1715304071
330,luwuk,-0.9516,122.7875,27.06,72,98,2.27,ID,1715304072
331,port blair,11.6667,92.75,30.03,71,43,1.74,IN,1715304072
332,fig tree,-33.0317,148.7511,17.97,63,100,6.41,AU,1715304073
333,aripuana,-9.1667,-60.6333,23.95,72,100,0.97,BR,1715304073
334,santa luzia,-19.7697,-43.8514,22.5,73,0,2.57,BR,1715304074
335,monrovia,6.3005,-10.7969,25.87,85,100,2.48,LR,1715304075
336,dongkan,33.9997,119.8308,19.65,59,0,5.69,CN,1715304075
337,maridi,4.9158,29.4742,20.29,92,83,2.65,SS,1715304076
338,baskale,38.0453,44.0172,4.2,83,100,0.12,TR,1715304077
339,duobao,30.67,112.6895,22.26,67,100,5.78,CN,1715304077
340,broken hill,-31.95,141.4333,16.43,70,58,4.68,AU,1715304078
341,touros,-5.1989,-35.4608,25.57,91,45,4.13,BR,1715304078
342,necochea,-38.5473,-58.7368,9.13,52,74,3.95,AR,1715304079
343,tangalle,6.024,80.7911,26.25,89,100,1.56,LK,1715304079
344,ngetkib,7.3645,134.5148,25.14,94,100,3.09,PW,1715304080
345,novoishimskiy,53.1981,66.7694,6.43,72,0,1.69,KZ,1715304080
346,vernon,50.2581,-119.2691,25.34,25,12,1.79,CA,1715304074
347,arafat,21.3594,39.9664,29.49,46,0,1.24,SA,1715304081
348,pontes e lacerda,-15.2261,-59.3353,24.02,62,0,0.96,BR,1715304082
349,morondava,-20.2833,44.2833,21.61,81,0,3.79,MG,1715304082
350,och'amch'ire,42.7123,41.4686,14.02,50,100,0.59,GE,1715304083
351,arteche,12.2645,125.4048,29.0,68,100,3.09,PH,1715304083
352,tianshui,34.5439,105.6897,16.36,75,100,0.62,CN,1715304084
353,salinas,36.6777,-121.6555,25.31,58,0,7.2,US,1715303881
354,takoradi,4.8845,-1.7554,27.98,83,100,3.52,GH,1715304085
355,lihue,21.9789,-159.3672,26.58,67,20,3.6,US,1715304085
356,qingdao,36.0986,120.3719,19.78,60,0,7.0,CN,1715304086
357,kralendijk,12.15,-68.2667,27.99,83,20,5.66,BQ,1715304086
358,oriximina,-1.7656,-55.8661,25.63,93,100,2.06,BR,1715304087
359,al bardiyah,31.7561,25.0865,18.43,80,0,7.66,LY,1715304087
360,kalamaria,40.5825,22.9503,17.39,87,100,3.6,GR,1715304088
361,norderney,53.7,7.15,10.57,82,13,3.43,DE,1715304088
362,minggang,32.4586,114.0486,23.3,56,5,6.58,CN,1715304089
363,ebon,4.582,168.6964,28.56,80,40,3.75,MH,1715304089
364,waingapu,-9.6567,120.2641,28.22,75,14,7.03,ID,1715304090
365,ilulissat,69.2167,-51.1,-4.99,80,37,1.03,GL,1715304091
366,irymple,-34.25,142.1667,18.38,72,4,0.45,AU,1715304091
367,hassi messaoud,31.6804,6.0729,18.92,32,0,2.06,DZ,1715304092
368,bondoukou,8.0333,-2.8,25.55,75,100,1.81,CI,1715304092
369,souillac,-20.5167,57.5167,24.21,73,40,5.14,MU,1715304093
370,grafton,42.207,-71.6856,12.86,78,100,2.24,US,1715304093
371,muli,2.9167,73.5667,28.88,78,100,4.98,MV,1715304094
372,eforie sud,44.0229,28.6494,9.45,82,73,6.1,RO,1715304094
373,dobrovo,45.9964,13.5264,17.27,69,2,3.6,SI,1715304095
374,pingnan,23.5543,110.3976,22.45,84,100,1.34,CN,1715304096
375,znamenskoye,57.1281,73.8282,9.79,89,100,5.18,RU,1715304096
376,bereznik,62.8551,42.7072,-3.41,94,100,4.46,RU,1715304097
377,petropavlovsk-kamchatsky,53.0452,158.6483,9.33,66,75,8.0,RU,1715304097
378,santa vitoria do palmar,-33.5189,-53.3681,9.68,83,0,0.76,BR,1715304098
379,olinda,-8.0089,-34.8553,25.85,89,75,3.09,BR,1715304098
380,ixtapa,20.7,-105.2,26.57,74,0,3.6,MX,1715304099
381,jijiga,9.35,42.8,17.83,90,7,2.3,ET,1715304100
382,paradip garh,20.3167,86.6167,28.89,79,19,4.5,IN,1715304101
383,brezina,33.0989,1.2608,18.2,25,74,4.88,DZ,1715304101
384,kruisfontein,-34.0033,24.7314,11.6,88,0,0.48,ZA,1715304102
385,annau,37.8876,58.516,15.72,72,100,2.06,TM,1715304102
386,tereze,43.9361,42.4434,8.22,98,100,0.43,RU,1715304103
387,kisanga,-7.4362,37.7034,22.87,91,100,0.44,TZ,1715304103
388,midvagur,62.0511,-7.1939,7.46,100,100,7.72,FO,1715304104
389,grand gaube,-20.0064,57.6608,24.22,77,68,10.61,MU,1715304105
390,vanino,49.0869,140.2543,11.63,57,34,5.04,RU,1715304106
391,salalah,17.0151,54.0924,29.05,84,20,1.03,OM,1715304106
392,mosina,52.2454,16.8471,10.66,74,0,1.03,PL,1715304107
393,bure,10.7,37.0667,19.8,47,99,0.75,ET,1715304107
394,westbrook,43.677,-70.3712,10.57,83,40,2.06,US,1715304108
395,andergrove,-21.0833,149.1833,23.14,72,99,7.33,AU,1715304108
396,nar'yan-mar,67.6713,53.087,-1.61,95,100,11.62,RU,1715304109
397,stornoway,58.2093,-6.3865,10.02,94,100,2.06,GB,1715304109
398,bloemhof,-27.6469,25.607,14.97,40,0,3.55,ZA,1715304110
399,targuist,34.9377,-4.3186,14.15,70,21,1.36,MA,1715304110
400,wasilkow,53.1991,23.2078,8.43,76,75,0.89,PL,1715304111
401,colonia,50.9333,6.95,11.77,87,0,2.06,DE,1715304111
402,yura,-16.2522,-71.6797,13.29,41,0,2.06,PE,1715304112
403,ingeniero guillermo n. juarez,-23.9,-61.85,15.88,53,100,1.16,AR,1715304112
404,progreso,21.2833,-89.6667,38.06,80,14,5.87,MX,1715304113
405,sijunjung,-0.6876,100.9537,25.02,93,99,0.19,ID,1715304113
406,new castle,41.0037,-80.347,11.9,96,100,5.14,US,1715304114
407,ugoofaaru,5.6667,73.0,29.58,75,100,6.05,MV,1715304114
408,nuuk,64.1835,-51.7216,0.34,93,8,4.12,GL,1715303956
409,la ronge,55.1001,-105.2842,18.14,24,75,6.17,CA,1715304115
410,belmonte,-15.8631,-38.8828,25.16,82,0,2.04,BR,1715304116
411,akureyri,65.6835,-18.0878,3.96,65,0,1.54,IS,1715304116
412,crane,31.3974,-102.3501,30.81,14,3,3.49,US,1715304117
413,debeljaca,45.0711,20.6,14.11,71,99,5.68,RS,1715304117
414,talagang,32.9297,72.4158,27.07,32,11,3.74,PK,1715304118
415,sovetskaya gavan',48.9723,140.2878,11.73,43,2,5.69,RU,1715304118
416,kiama,-34.6833,150.8667,20.21,88,100,0.89,AU,1715303923
417,barranca,-10.75,-77.7667,18.84,85,28,3.43,PE,1715304119
418,buala,-8.145,159.5921,26.86,88,100,2.4,SB,1715304120
419,aqsay,51.1678,52.995,1.45,65,0,3.9,KZ,1715304121
420,ribeira brava,32.65,-17.0667,20.35,78,18,0.54,PT,1715304121
421,magadan,59.5667,150.8,3.63,82,42,1.46,RU,1715304122
422,inyonga,-6.7167,32.0667,19.94,81,99,2.11,TZ,1715304123
423,carnarvon,-24.8667,113.6333,24.07,60,100,3.71,AU,1715304124
424,wewak,-3.5534,143.6268,27.97,83,84,2.83,PG,1715304124
425,minas de marcona,-15.2119,-75.1103,13.53,83,80,6.06,PE,1715304125
426,shevchenko,48.5,35.0,6.22,51,5,1.61,UA,1715304125
427,ak'ordat,15.5486,37.8867,31.65,41,98,1.63,ER,1715304126
428,fada,9.5667,8.3,25.14,68,100,0.59,NG,1715304126
429,dunedin,-45.8742,170.5036,8.78,85,85,4.47,NZ,1715304127
430,lorengau,-2.0226,147.2712,28.0,78,100,2.69,PG,1715304127
431,itimadpur,27.25,78.2,29.4,44,0,3.24,IN,1715304065
432,chibougamau,49.9168,-74.3659,5.79,70,0,0.0,CA,1715304128
433,sinop,41.7711,34.8709,9.96,83,100,0.55,TR,1715304129
434,manfredonia,41.6259,15.9094,18.26,77,20,8.75,IT,1715304129
435,acapulco de juarez,16.8634,-99.8901,25.9,78,100,3.6,MX,1715303961
436,rechka-vydrino,51.485,104.8461,2.07,98,100,5.95,RU,1715304130
437,gaoual,11.75,-13.2,26.86,81,100,2.02,GN,1715304131
438,bridgeport,41.167,-73.2048,17.09,67,100,0.45,US,1715303912
439,sibolga,1.7427,98.7792,27.06,82,100,1.02,ID,1715304132
440,argo,37.6333,22.7333,15.19,81,100,2.65,GR,1715304132
441,el bauga,18.262,33.9081,27.5,12,11,4.52,SD,1715304133
442,sarangani,5.4033,125.4636,28.53,77,100,7.29,PH,1715304133
443,namibe,-15.1961,12.1522,22.6,71,4,4.17,AO,1715304134
444,ranchettes,41.2186,-104.7903,5.29,82,100,6.17,US,1715304134
445,robore,-18.3333,-59.75,19.07,90,37,1.42,BO,1715304135
446,alpine,32.835,-116.7664,20.93,69,0,1.79,US,1715304136
447,sinabang,2.4803,96.3801,27.74,84,100,1.64,ID,1715304137
448,caconda,-13.7333,15.0667,18.47,64,98,0.51,AO,1715304137
449,alice springs,-23.7,133.8833,17.75,68,100,6.69,AU,1715303960
450,hovd,48.0056,91.6419,13.87,32,100,1.46,MN,1715304138
451,opuwo,-18.0607,13.84,22.29,54,48,1.44,NA,1715304139
452,massawa,15.6097,39.45,29.88,74,99,0.08,ER,1715304139
453,owen sound,44.5672,-80.9435,10.21,75,100,2.68,CA,1715304140
454,peniche,39.3558,-9.3811,16.83,95,100,2.85,PT,1715304140
455,tamanrasset,22.785,5.5228,19.95,8,0,1.54,DZ,1715304141
456,darnah,32.767,22.6367,17.32,73,1,8.98,LY,1715304141
457,kotovo,50.3211,44.8012,0.82,61,7,1.44,RU,1715304142
458,santa terezinha,-29.9002,-50.0904,15.64,67,100,0.64,BR,1715304142
459,nagqu,31.5,92.0,-0.14,49,100,1.54,CN,1715304143
460,urumqi,43.801,87.6005,19.53,21,0,1.0,CN,1715303893
461,severo-yeniseyskiy,60.3725,93.0408,2.54,89,100,1.79,RU,1715304144
462,suva,-18.1416,178.4415,26.71,54,20,3.6,FJ,1715304144
463,tanda,26.55,82.65,27.43,55,0,5.35,IN,1715304145
464,bridlington,54.0831,-0.1919,13.97,86,100,0.45,GB,1715304145
465,camargo,27.6667,-105.1667,32.24,5,2,10.0,MX,1715304146
466,oppdal,62.5943,9.6912,1.9,76,100,2.49,NO,1715304146
467,nevada,39.2502,-116.7512,9.79,32,100,7.08,US,1715304147
468,mar del plata,-38.0023,-57.5575,11.04,64,0,2.24,AR,1715304000
469,citrus springs,28.9975,-82.4707,27.2,81,100,0.0,US,1715304148
470,heihe,50.2441,127.4902,14.32,22,100,4.45,CN,1715304148
471,tidjikja,18.5564,-11.4271,33.3,6,100,2.21,MR,1715304149
472,arys,42.4252,68.795,16.21,87,100,1.29,KZ,1715304149
473,pisco,-13.7,-76.2167,20.57,77,0,1.54,PE,1715304150
474,brak,27.5496,14.2714,20.78,30,0,8.38,LY,1715304150
475,gusinoozyorsk,51.2833,106.5,2.69,89,86,10.92,RU,1715304151
476,el bolson,-41.9667,-71.5167,3.6,97,100,2.01,AR,1715304151
477,song cau,13.45,109.2167,27.92,73,98,1.79,VN,1715304152
478,kuusamo,65.9667,29.1833,-2.98,80,100,1.03,FI,1715304152
479,revda,56.801,59.9303,-0.34,62,91,4.06,RU,1715304153
480,westport,41.1415,-73.3579,17.01,61,100,0.0,US,1715304154
481,contamana,-7.3333,-75.0167,24.32,97,100,0.6,PE,1715304154
482,zonguldak,41.25,31.8333,10.47,96,99,0.72,TR,1715304155
483,am timan,11.0297,20.2827,30.47,17,50,2.55,TD,1715304156
484,vygonichi,53.0985,34.0673,0.38,69,100,3.54,RU,1715304157
485,peace river,56.2501,-117.286,24.17,23,75,6.69,CA,1715304157
486,kavieng,-2.5744,150.7967,28.12,79,66,1.87,PG,1715304158
487,nadym,65.5333,72.5167,1.65,100,100,11.69,RU,1715304158
488,mombetsu,44.3525,143.3525,16.01,51,20,7.72,JP,1715304159
489,wainwright,52.839,-110.8572,16.67,49,12,4.27,CA,1715304160
490,laojunmiao,39.8333,97.7333,11.38,36,100,3.54,CN,1715304160
491,sikeston,36.8767,-89.5879,24.94,64,2,3.8,US,1715304070
492,freetown,8.484,-13.2299,24.84,88,75,3.6,SL,1715304161
493,hadibu,12.65,54.0333,28.2,74,44,0.63,YE,1715304162
494,taulaga,-11.0553,-171.0883,29.28,73,100,3.97,AS,1715304162
495,ibarreta,-25.2144,-59.8585,16.26,63,100,1.54,AR,1715304163
496,margate,51.3813,1.3862,10.94,89,84,1.99,GB,1715304163
497,key west,24.5557,-81.7826,27.0,83,0,4.63,US,1715304164
498,nueva villa de padilla,24.0167,-98.7833,39.61,24,1,8.44,MX,1715304164
499,kashgar,39.4547,75.9797,24.56,20,40,2.0,CN,1715304165
500,retreat,38.8245,-85.8533,20.53,89,3,3.73,US,1715304166
501,bowen,-20.0167,148.2333,25.83,64,100,7.55,AU,1715304167
502,leticia,-4.2153,-69.9406,24.03,100,40,1.03,CO,1715303886
503,sokoni,-6.4333,39.55,26.65,81,21,8.25,TZ,1715304168
504,gizo,-8.103,156.8419,27.42,83,86,4.96,SB,1715304168
505,arno,60.1167,18.6333,5.99,76,100,9.06,SE,1715304169
506,kabala,9.5833,-11.55,23.08,92,100,0.64,SL,1715304169
507,den burg,53.0542,4.7972,10.55,97,75,0.51,NL,1715304170
508,tsiombe,-25.3,45.4833,19.78,80,0,2.08,MG,1715304170
509,tofol,5.3248,163.0078,29.88,74,75,5.14,FM,1715304171
510,luanda,-8.8368,13.2343,27.0,93,0,2.06,AO,1715304172
511,fortuna,40.5982,-124.1573,24.4,44,0,5.14,US,1715304172
512,nabire,-3.3667,135.4833,29.02,76,100,0.78,ID,1715304173
513,olyokminsk,60.3736,120.4264,3.62,54,99,2.0,RU,1715304173
514,bechar,31.6167,-2.2167,24.18,15,58,1.03,DZ,1715304174
515,uliastay,47.7417,96.8444,7.19,27,16,1.28,MN,1715304174
516,conceicao da barra,-18.5933,-39.7322,24.44,89,0,1.69,BR,1715304175
517,maitum,6.0392,124.4986,29.45,68,100,1.85,PH,1715304175
518,schweizer-reneke,-27.1887,25.3293,14.64,40,0,3.85,ZA,1715304176
519,sabha,27.0377,14.4283,20.9,30,20,7.08,LY,1715304176
520,damghan,36.1683,54.348,12.04,55,0,0.51,IR,1715304177
521,al jawf,29.5,38.75,23.08,18,0,6.95,SA,1715304177
522,duba,27.3513,35.6901,26.48,46,0,1.23,SA,1715304178
523,vila franca do campo,37.7167,-25.4333,18.27,99,18,1.53,PT,1715304178
524,badagry,6.4167,2.8833,28.71,80,100,4.7,NG,1715304179
525,qinhuangdao,39.9317,119.5883,19.85,50,100,6.75,CN,1715304179
526,muynoq,43.7683,59.0214,15.41,55,100,5.52,UZ,1715304180
527,mahajanga,-15.7167,46.3167,22.01,73,20,2.06,MG,1715304180
528,howrah,22.5892,88.3103,24.0,83,40,4.63,IN,1715304181
529,bandipura,34.4167,74.65,13.95,45,15,3.74,IN,1715304181
530,puerto santa,-8.9906,-78.6456,19.22,89,100,4.56,PE,1715304182
531,praia da vitoria,38.7333,-27.0667,16.53,88,20,1.77,PT,1715304182
532,qujing,25.4833,103.7833,17.29,75,96,6.78,CN,1715304183
533,ta`u,-14.2336,-169.5144,27.8,79,100,3.24,AS,1715304183
534,ocean city,39.2776,-74.5746,16.14,76,99,3.13,US,1715304098
535,guerrero negro,27.9769,-114.0611,17.8,66,17,7.81,MX,1715304184
536,xilin hot,43.9667,116.0333,17.01,28,100,8.76,CN,1715304185
537,saint-francois,46.4154,3.9054,8.69,100,0,0.0,FR,1715304185
538,betio village,1.358,172.9211,31.02,76,100,2.71,KI,1715304186
539,gavrilov posad,56.5597,40.1175,1.61,58,85,4.44,RU,1715304186
540,coronel dorrego,-38.7187,-61.2873,8.69,56,48,4.67,AR,1715304187
541,shakiso,5.75,38.9167,16.46,97,100,0.8,ET,1715304188
542,sao jose da coroa grande,-8.8978,-35.1478,26.02,83,26,4.61,BR,1715304188
543,olavarria,-36.8927,-60.3225,6.91,65,100,2.6,AR,1715304189
544,chadron,42.8294,-102.9999,10.86,88,75,2.68,US,1715304189
545,quitilipi,-26.8691,-60.2168,16.14,51,100,2.0,AR,1715304190
546,port alfred,-33.5906,26.891,17.43,90,42,0.68,ZA,1715304190
547,genhe,50.7833,121.5167,9.21,69,100,4.73,CN,1715304191
548,sao gabriel da cachoeira,-0.1303,-67.0892,24.19,98,100,0.88,BR,1715304191
549,slupsk,54.4641,17.0287,9.69,76,100,4.28,PL,1715304192
550,ione,38.3527,-120.9327,30.64,23,0,3.6,US,1715304193
551,priozersk,61.0393,30.1291,3.94,86,98,2.64,RU,1715304193
552,tromso,69.6496,18.957,2.01,93,75,4.12,NO,1715304194
553,prince rupert,54.3161,-130.3201,12.05,80,75,4.63,CA,1715304194
554,mabaruma,8.2,-59.7833,25.6,81,100,1.51,GY,1715304195
555,sibiti,-3.6819,13.3499,21.91,99,100,0.9,CG,1715304195
556,livno,43.8269,17.0078,10.56,94,100,3.71,BA,1715304196
557,grand falls-windsor,48.9332,-55.6649,4.17,87,100,0.45,CA,1715304196
558,reyes,-14.3167,-67.3833,24.13,96,100,1.71,BO,1715304197
559,cooper's town,26.8667,-77.5167,25.55,75,0,5.0,BS,1715304198
560,poronaysk,49.2167,143.1167,10.48,57,87,2.05,RU,1715304198
561,pandan,14.0453,124.1694,30.14,63,55,2.13,PH,1715304199
562,odienne,9.51,-7.5692,25.03,79,98,1.38,CI,1715304199
563,castillos,-34.1667,-53.8333,7.62,86,9,1.23,UY,1715304200
564,bhamo,24.2667,97.2333,23.66,81,100,0.42,MM,1715304200
565,temryuk,45.2722,37.3811,8.12,60,100,4.93,RU,1715304064
566,lubao,14.9167,120.55,33.04,57,83,5.94,PH,1715304201
567,el hadjira,32.6134,5.5126,20.94,28,100,1.44,DZ,1715304202
568,ciudad rodrigo,40.6,-6.5333,10.99,63,2,1.82,ES,1715304202
569,ambovombe,-25.1667,46.0833,19.5,83,0,2.32,MG,1715304203
570,fuentes de andalucia,37.4641,-5.3462,14.03,44,100,4.01,ES,1715304203
571,porto novo,6.4965,2.6036,29.9,80,100,3.66,BJ,1715304204
572,yorkton,51.2167,-102.4677,19.91,22,0,11.32,CA,1715304204
573,pregradnaya,43.9508,41.1994,8.35,96,100,1.13,RU,1715304205
574,barra de santo antonio,-9.4047,-35.5072,25.6,73,100,4.03,BR,1715304205
575,gwanda,-20.9333,29.0,13.04,81,0,1.9,ZW,1715304206
576,nieuw amsterdam,5.8833,-55.0833,25.09,88,100,4.65,SR,1715304206
577,huaraz,-9.5333,-77.5333,13.12,81,54,2.16,PE,1715304207
